City,Country,Date,Humidity,Lat,Lng,Max Temp,Cloudiness,Wind Speed
Atuona,PF,1583371167,69,-9.8,-139.03,81.3,58,10.22
Laramie,US,1583371096,37,41.31,-105.59,46.4,22,27.51
Ushuaia,AR,1583371091,87,-54.8,-68.3,51.8,75,5.82
Faanui,PF,1583371168,73,-16.48,-151.75,82.47,86,5.95
Carnarvon,AU,1583371168,88,-24.87,113.63,78.8,0,12.75
Rio Grande,BR,1583370890,75,-32.03,-52.1,69.01,0,13.02
Nikolskoye,RU,1583371168,93,59.7,30.79,39.2,90,8.95
Mataura,NZ,1583371168,54,-46.19,168.86,61.32,0,1.72
Padang,ID,1583371169,95,-0.95,100.35,69.08,100,2.48
Saint George,US,1583371169,24,37.1,-113.58,66.2,1,9.17
Albany,US,1583370971,69,42.6,-73.97,42.01,90,13.87
Saint-Philippe,RE,1583371169,100,-21.36,55.77,77.0,90,2.24
Kaseda-shirakame,JP,1583371169,52,31.42,130.32,42.8,75,11.41
Port Hardy,CA,1583371163,75,50.7,-127.42,41.0,90,14.99
New Norfolk,AU,1583371169,93,-42.78,147.06,63.0,75,8.05
Shingū,JP,1583371169,53,33.73,135.98,44.6,75,21.92
Cabo San Lucas,MX,1583371170,59,22.89,-109.91,70.0,90,8.05
Caravelas,BR,1583371170,82,-17.71,-39.25,81.82,46,18.3
Portland,US,1583370900,37,45.52,-122.68,55.99,1,3.36
Naryan-Mar,RU,1583371170,91,67.67,53.09,9.16,0,9.35
Rikitea,PF,1583371170,72,-23.12,-134.97,77.63,42,17.0
Chishtian,PK,1583371170,72,29.8,72.87,56.86,0,11.77
Provideniya,RU,1583371073,61,64.38,-173.3,14.0,0,3.85
Nishihara,JP,1583371170,87,26.18,127.76,59.0,75,16.11
Sitka,US,1583371171,69,57.05,-135.33,37.4,90,13.87
Ponta do Sol,PT,1583371171,72,32.67,-17.1,62.6,20,2.24
San Felipe,VE,1583371171,84,10.34,-68.74,72.57,8,3.38
Port-Cartier,CA,1583371171,86,50.03,-66.87,30.2,90,14.99
Bluff,NZ,1583371072,50,-46.6,168.33,60.6,0,2.66
Sangar,RU,1583371171,86,63.92,127.47,1.96,100,13.96
Bambous Virieux,MU,1583371171,100,-20.34,57.76,79.0,75,5.82
Shimoda,JP,1583371172,58,34.67,138.95,57.99,75,16.11
Puerto Ayora,EC,1583370974,83,-0.74,-90.35,80.6,75,4.7
Barrow,US,1583371165,92,71.29,-156.79,-32.8,1,8.05
Muzhi,RU,1583371172,80,65.37,64.67,5.32,66,18.34
Esperance,AU,1583371172,60,-33.87,121.9,68.0,44,17.22
Saint-Joseph,RE,1583371172,100,-21.37,55.62,77.0,90,2.24
Guerrero Negro,MX,1583371172,45,27.98,-114.06,67.51,0,15.9
Kharp,RU,1583371172,93,66.8,65.81,-7.11,20,12.75
Chui,UY,1583371173,80,-33.7,-53.46,66.97,0,9.51
Springdale,US,1583370915,43,36.19,-94.13,53.6,1,5.82
Beloha,MG,1583371173,79,-25.17,45.05,69.19,46,15.41
Māndal,IN,1583371173,41,25.45,74.57,60.35,0,5.12
Cotacachi,EC,1583371173,82,0.3,-78.27,62.6,40,6.93
Port Victoria,KE,1583371173,75,0.09,33.98,71.87,100,6.29
Busselton,AU,1583371173,40,-33.65,115.33,75.0,100,9.69
Kysyl-Syr,RU,1583371174,95,63.9,122.76,1.94,100,7.85
Tuatapere,NZ,1583371174,44,-46.13,167.68,61.21,0,3.24
Yellowknife,CA,1583371174,70,62.46,-114.35,-4.0,75,14.99
Samarai,PG,1583371174,67,-10.62,150.67,87.12,84,1.14
Vila do Maio,CV,1583371174,64,15.13,-23.22,73.4,0,19.46
San Miguel de Cozumel,MX,1583371174,78,20.51,-86.95,80.6,40,6.93
Qaanaaq,GL,1583371174,99,77.48,-69.36,-14.46,99,2.01
Deputatsky,RU,1583371175,72,69.3,139.9,-7.1,9,3.6
Ahipara,NZ,1583371175,100,-35.17,173.17,72.0,91,7.34
Upernavik,GL,1583371175,76,72.79,-56.15,-10.61,100,5.35
Hobart,AU,1583371175,93,-42.88,147.33,63.0,75,8.05
Zhangaözen,KZ,1583371175,81,43.3,52.8,40.87,0,4.5
Eureka,US,1583370968,81,40.8,-124.16,61.0,20,4.7
Hirara,JP,1583371175,93,24.8,125.28,60.8,75,20.8
Jiaozuo,CN,1583371175,35,35.24,113.23,37.58,8,8.34
Katsuura,JP,1583371175,46,35.13,140.3,55.4,75,24.16
East London,ZA,1583371176,70,-33.02,27.91,76.93,0,10.36
Pangnirtung,CA,1583371176,96,66.15,-65.71,9.12,100,0.43
Porto-Novo,BJ,1583371163,83,6.5,2.6,84.2,40,11.41
Te Anau,NZ,1583371176,74,-45.42,167.72,46.36,1,2.46
Ordzhonīkīdze,KZ,1583371176,92,52.44,61.74,22.19,92,7.56
Norman Wells,CA,1583371176,69,65.28,-126.83,-13.0,75,10.29
Winnemucca,US,1583371176,15,40.97,-117.74,64.4,1,9.17
Punta Arenas,CL,1583371070,71,-53.15,-70.92,57.2,20,9.17
Kamaishi,JP,1583371177,75,39.27,141.88,41.0,75,8.05
Necochea,AR,1583371177,83,-38.55,-58.74,71.01,0,3.0
Port Macquarie,AU,1583371177,83,-31.43,152.92,78.01,75,18.34
Mount Isa,AU,1583371177,88,-20.73,139.5,77.0,90,9.17
Kapaa,US,1583371177,61,22.08,-159.32,80.6,90,9.17
Ancud,CL,1583371177,82,-41.87,-73.82,62.6,40,5.82
Kaiyuan,CN,1583371177,94,23.7,103.3,49.8,89,8.84
Bredasdorp,ZA,1583371178,82,-34.53,20.04,66.2,71,2.24
Garoowe,SO,1583371178,79,8.41,48.48,64.38,17,7.54
Salalah,OM,1583371178,22,17.02,54.09,73.4,54,5.82
Leninskoye,RU,1583371178,87,47.94,132.62,14.83,0,5.75
Mahébourg,MU,1583371178,100,-20.41,57.7,79.0,75,5.82
Mweka,CD,1583371178,72,-4.85,21.57,71.4,0,2.71
Phalodi,IN,1583371178,52,27.13,72.37,65.82,0,11.05
Cherskiy,RU,1583371178,73,68.75,161.3,7.86,82,16.4
Port Alfred,ZA,1583371067,82,-33.59,26.89,71.01,0,8.01
Mnogovershinnyy,RU,1583371179,85,53.94,139.92,14.67,100,3.49
Vaini,TO,1583371179,70,-21.2,-175.2,86.0,75,6.93
Jacareacanga,BR,1583371179,94,-6.22,-57.75,75.92,65,1.57
Longyearbyen,SJ,1583371179,67,78.22,15.64,19.4,75,4.7
Vila Velha,BR,1583371176,100,-20.33,-40.29,73.4,90,4.7
Barberino di Mugello,IT,1583371179,93,44.0,11.24,42.01,1,2.24
Dingle,PH,1583371179,76,11.0,122.67,78.87,52,13.73
Port Elizabeth,ZA,1583371180,73,-33.92,25.57,69.8,42,13.87
Batemans Bay,AU,1583371180,100,-35.72,150.18,71.01,100,1.01
Nome,US,1583371180,71,64.5,-165.41,7.0,1,5.82
Banyo,CM,1583371180,47,6.75,11.82,67.87,68,2.71
Lebu,CL,1583371180,68,-37.62,-73.65,63.0,0,12.41
Ust'-Uda,RU,1583371180,90,54.17,103.03,24.12,100,9.57
Pīshvā,IR,1583371180,56,35.31,51.73,44.6,0,11.41
Sinnamary,GF,1583371181,75,5.38,-52.95,79.81,23,15.26
Mar del Plata,AR,1583371181,100,-38.0,-57.56,69.01,90,9.17
Ribeira Grande,PT,1583371181,76,38.52,-28.7,55.4,20,5.82
Jamestown,US,1583371181,92,42.1,-79.24,36.0,90,10.29
Peniche,PT,1583371181,93,39.36,-9.38,60.01,75,12.75
Geraldton,AU,1583371181,47,-28.77,114.6,78.8,15,11.41
Avarua,CK,1583371181,74,-21.21,-159.78,86.0,8,8.05
Isangel,VU,1583371181,66,-19.55,169.27,89.6,40,5.82
Pierre,US,1583371022,43,44.37,-100.35,51.8,40,27.51
Mount Gambier,AU,1583371182,77,-37.83,140.77,64.4,75,10.29
Trelew,AR,1583371182,57,-43.25,-65.31,71.56,100,8.12
Huilong,CN,1583371182,55,31.81,121.66,45.0,0,4.0
Cabedelo,BR,1583371182,83,-6.98,-34.83,80.6,20,4.7
Chokurdakh,RU,1583371182,79,70.63,147.92,-10.59,0,2.89
Ugoofaaru,MV,1583371182,73,5.67,73.0,82.26,25,6.2
Bay Roberts,CA,1583371182,86,47.6,-53.26,41.0,90,29.97
Cabo Rojo,PR,1583371183,78,18.09,-67.15,79.0,75,5.82
Oleśnica,PL,1583371183,92,51.21,17.39,36.0,75,1.12
Tshela,CD,1583371183,98,-4.98,12.93,75.13,79,1.77
Tobol,KZ,1583371183,91,52.68,62.58,20.55,76,7.4
Gemeente Veenendaal,NL,1583371183,93,52.02,5.55,43.0,90,4.7
Chernyshevskiy,RU,1583371183,96,63.01,112.47,1.8,100,4.65
Torbay,CA,1583371183,86,47.67,-52.73,41.0,90,29.97
Lagoa,PT,1583371183,68,39.05,-27.98,58.98,18,15.93
Santiago del Estero,AR,1583371184,45,-27.8,-64.26,76.03,0,2.19
Berlevåg,NO,1583371184,70,70.86,29.09,24.19,30,22.24
Arraial do Cabo,BR,1583371184,83,-22.97,-42.03,75.7,70,15.01
Departamento de Maldonado,UY,1583371184,88,-34.67,-54.92,69.8,0,8.05
Cape Town,ZA,1583370967,93,-33.93,18.42,69.01,75,11.41
Sittwe,MM,1583371184,83,20.15,92.9,67.86,0,4.68
Dikson,RU,1583371184,99,73.51,80.55,-12.05,100,17.4
Izhma,RU,1583371185,96,65.01,53.91,8.13,65,5.7
São João da Barra,BR,1583371185,91,-21.64,-41.05,73.4,98,8.63
Marzuq,YE,1583371185,59,14.4,46.47,65.79,22,4.03
Limbang,MY,1583371185,88,4.75,115.0,80.6,75,4.7
Grand Gaube,MU,1583371185,100,-20.01,57.66,79.0,75,5.82
Bethel,US,1583371074,52,41.37,-73.41,50.0,90,10.29
Bengkulu,ID,1583371185,92,-3.8,102.27,72.93,100,4.14
Hamilton,US,1583371018,39,39.18,-84.53,50.0,1,4.7
Vardø,NO,1583371185,72,70.37,31.11,23.67,56,22.64
Paamiut,GL,1583371044,49,61.99,-49.67,10.09,0,4.92
Gualaquiza,EC,1583371186,96,-3.4,-78.55,65.93,49,1.77
Kastamonu Province,TR,1583371186,60,41.5,33.67,42.17,75,3.11
Zermatt,CH,1583371186,65,46.02,7.75,42.01,100,4.7
Jambi City,ID,1583371186,97,-1.6,103.62,74.3,100,2.95
Asău,RO,1583371186,93,46.43,26.4,45.0,75,11.41
Castro,BR,1583371186,66,-24.79,-50.01,63.55,30,1.03
Tiksi,RU,1583371187,83,71.69,128.87,1.15,100,12.48
Narsaq,GL,1583371187,43,60.92,-46.05,10.4,0,3.36
Itarema,BR,1583371187,93,-2.92,-39.92,75.92,52,2.15
Aklavik,CA,1583371187,69,68.22,-135.01,-9.4,75,10.29
Dekar,BW,1583371187,65,-21.53,21.93,65.01,26,5.86
Tasiilaq,GL,1583371187,79,65.61,-37.64,23.0,98,4.7
Hofn,IS,1583371187,56,64.25,-15.21,38.75,80,10.54
Lorengau,PG,1583371187,69,-2.02,147.27,84.76,99,9.26
Sayyan,YE,1583371188,59,15.17,44.32,51.46,0,0.98
Nemuro,JP,1583371188,92,43.32,145.57,30.2,90,16.11
Yima,CN,1583371188,39,34.74,111.88,35.2,0,4.27
Lüderitz,NA,1583371188,77,-26.65,15.16,69.8,0,9.17
Clyde River,CA,1583371188,75,70.47,-68.59,-16.6,90,14.99
Dongsheng,CN,1583371188,65,39.82,109.98,31.15,28,21.81
Ilulissat,GL,1583371188,57,69.22,-51.1,-9.4,63,2.24
Tuktoyaktuk,CA,1583371188,68,69.45,-133.04,-18.4,90,21.92
Constantine,DZ,1583371189,87,36.37,6.61,42.8,20,2.24
Hilo,US,1583371189,69,19.73,-155.09,77.0,90,14.99
Quatre Cocos,MU,1583371189,100,-20.21,57.76,79.0,75,5.82
Kaitangata,NZ,1583371189,70,-46.28,169.85,51.62,0,3.8
Harbour Breton,CA,1583371189,89,47.48,-55.8,34.9,100,38.63
Mogocha,RU,1583371190,96,53.73,119.77,1.94,92,0.89
Warri,NG,1583371190,82,5.52,5.75,80.92,1,3.09
Butaritari,KI,1583371190,80,3.07,172.79,83.03,100,17.29
Mil'kovo,RU,1583371190,91,54.72,158.62,13.3,100,1.36
Pevek,RU,1583371190,67,69.7,170.31,1.4,39,10.4
Thompson,CA,1583371007,62,55.74,-97.86,21.2,90,3.36
Kloulklubed,PW,1583371190,83,7.04,134.26,82.4,90,9.17
Ambilobe,MG,1583371190,92,-13.2,49.05,74.86,51,2.13
Fort Nelson,CA,1583371191,51,58.81,-122.7,14.0,75,3.36
Itoman,JP,1583371191,77,26.12,127.67,59.0,75,19.46
Namie,JP,1583371191,56,37.48,141.0,42.8,75,12.75
Dudinka,RU,1583371124,84,69.41,86.18,-0.4,100,15.66
Hithadhoo,MV,1583371073,76,-0.6,73.08,82.72,100,13.33
Suntar,RU,1583371191,95,62.14,117.63,-1.64,44,4.23
Apollonia,GR,1583371090,76,36.97,24.72,55.99,53,5.82
Pochutla,MX,1583371075,78,15.74,-96.47,84.2,5,10.29
Nizhneangarsk,RU,1583371192,80,55.78,109.55,5.97,99,1.74
Nuuk,GL,1583371192,72,64.18,-51.72,14.0,0,16.11
Hermanus,ZA,1583371073,95,-34.42,19.23,63.0,9,1.88
Sechura,PE,1583371192,84,-5.56,-80.82,76.32,0,15.03
Souillac,MU,1583371192,100,-20.52,57.52,79.0,75,5.82
Kralendijk,BQ,1583370984,69,12.15,-68.27,80.6,58,23.04
Soyo,AO,1583371193,89,-6.13,12.37,79.12,32,5.48
Halifax,CA,1583371193,55,44.65,-63.57,41.0,90,29.97
Astara,AZ,1583371193,57,38.5,48.67,38.26,0,5.46
Hasaki,JP,1583371193,76,35.73,140.83,48.2,75,12.75
Kavaratti,IN,1583371193,71,10.57,72.64,81.77,10,10.67
Celestún,MX,1583371193,73,20.87,-90.4,81.9,0,8.46
Chālūs,IR,1583371193,87,36.66,51.42,44.6,0,4.7
Price,US,1583370994,19,39.6,-110.81,55.4,1,11.41
Champerico,GT,1583371194,58,14.3,-91.92,83.8,0,8.25
Faya,SA,1583371194,71,18.39,42.45,59.0,0,6.93
La Tuque,CA,1583371194,90,47.43,-72.78,27.09,100,12.12
Henties Bay,NA,1583371194,89,-22.12,14.28,68.0,52,5.01
Flinders,AU,1583371194,100,-34.58,150.86,73.0,90,10.29
The Valley,AI,1583371194,74,18.22,-63.06,78.8,20,10.29
Cayenne,GF,1583370897,78,4.93,-52.33,78.8,20,4.7
Bulawayo,ZW,1583371151,74,-20.15,28.58,60.35,80,9.01
Homa Bay,KE,1583371195,88,-0.53,34.46,66.2,75,8.05
Sungai Penuh,ID,1583371195,98,-2.08,101.38,63.54,99,2.93
Gleisdorf,AT,1583371195,85,47.11,15.71,34.0,0,1.12
Santo Domingo,DO,1583371190,83,18.5,-69.99,81.0,20,6.93
Rawson,AR,1583371195,71,-43.3,-65.1,71.13,100,9.78
Ostrovnoy,RU,1583371196,78,68.05,39.51,9.37,20,10.29
Kahului,US,1583371193,58,20.89,-156.47,82.4,40,9.17
Bom Jesus,BR,1583371196,93,-9.07,-44.36,75.0,100,2.44
Āmol,IR,1583371196,82,36.47,52.35,48.2,0,2.95
Cidreira,BR,1583371196,72,-30.18,-50.21,72.23,54,13.27
Birin,NP,1583371196,76,26.89,88.07,43.05,0,3.91
Fortuna,US,1583371196,87,40.6,-124.16,64.0,1,11.41
Talnakh,RU,1583371098,84,69.49,88.4,-0.4,100,15.66
Villarrica,PY,1583371156,38,-25.75,-56.43,74.97,0,2.35
Eenhana,NA,1583371197,88,-17.47,16.33,71.6,0,4.7
Aligoodarz,IR,1583371197,62,33.4,49.69,35.02,0,1.32
Latur,IN,1583371197,34,18.4,76.58,65.17,0,9.31
Union City,US,1583371197,46,37.6,-122.02,79.0,1,9.17
Bilibino,RU,1583371197,60,68.05,166.44,2.75,12,2.04
Tabou,CI,1583371197,96,4.42,-7.35,78.75,100,4.54
Emba,KZ,1583371197,97,48.83,58.14,23.32,99,5.86
Baruun-Urt,MN,1583370901,68,46.68,113.28,14.09,99,10.13
Ürümqi,CN,1583371198,92,43.8,87.6,32.0,75,6.71
Savalou,BJ,1583371198,68,7.93,1.98,82.96,89,5.39
Codrington,AU,1583371198,88,-38.27,141.97,61.61,96,13.18
Darhan,MN,1583371198,85,49.49,105.92,4.55,100,1.7
Bathsheba,BB,1583371068,69,13.22,-59.52,78.8,40,20.8
Ushumun,RU,1583371198,95,52.78,126.53,8.47,100,7.2
Kandrian,PG,1583371198,75,-6.22,149.55,84.87,84,6.11
Saint Paul Harbor,US,1583371199,48,57.79,-152.41,19.4,1,27.51
Riyadh,SA,1583371030,43,24.69,46.72,55.4,0,2.3
Kruisfontein,ZA,1583371199,66,-34.0,24.73,69.55,73,4.85
Dunedin,NZ,1583371199,75,-45.87,170.5,50.09,0,5.48
Broome,US,1583371199,86,42.25,-75.83,39.0,90,8.05
Manzhouli,CN,1583371199,98,49.6,117.43,-2.13,30,3.15
Kavieng,PG,1583371077,64,-2.57,150.8,84.56,100,4.07
Saint-François,FR,1583371200,87,46.42,3.91,45.0,100,5.82
Sos'va,RU,1583371200,84,59.18,61.86,13.01,9,7.54
Khatanga,RU,1583371200,99,71.97,102.5,-10.8,94,10.09
Zvenigovo,RU,1583371200,100,55.97,48.02,30.2,90,4.47
Kita,ML,1583371200,11,13.03,-9.49,74.35,0,1.7
Makkah al Mukarramah,SA,1583371021,59,21.43,39.83,73.76,5,2.46
Arrondissement de Saint-Denis,FR,1583371200,93,48.92,2.33,48.2,90,8.05
Saint-Pierre,RE,1583371200,100,-21.34,55.48,77.0,90,2.24
Severo-Kuril'sk,RU,1583371200,88,50.68,156.12,25.45,100,5.35
Nanyang,CN,1583371201,65,32.99,112.53,40.93,0,8.19
Cabañas,CU,1583371201,83,22.98,-82.92,77.0,0,5.82
Alofi,NU,1583371201,78,-19.06,-169.92,82.4,75,5.82
Hurghada,EG,1583371201,67,27.26,33.81,60.8,0,6.93
Ust'-Ilimsk,RU,1583371201,95,58.0,102.66,13.48,87,6.42
Solnechnyy,RU,1583371201,89,50.72,136.63,19.56,95,2.26
Kolpashevo,RU,1583371201,94,58.31,82.91,17.15,90,5.99
Caconda,AO,1583371202,77,-13.73,15.07,63.1,29,2.37
Belmonte,BR,1583371202,83,-15.86,-38.88,80.6,20,5.82
Benguela,AO,1583371202,83,-12.58,13.41,77.54,18,3.29
Maroantsetra,MG,1583371202,96,-15.43,49.73,67.46,88,3.31
Ust'-Kut,RU,1583371202,96,56.79,105.77,13.53,100,3.2
Novobiryusinskiy,RU,1583371202,91,56.96,97.71,22.15,96,10.02
Touros,BR,1583371202,78,-5.2,-35.46,82.4,40,4.7
Gardner,US,1583371202,44,42.58,-72.0,44.6,1,4.7
Kirakira,SB,1583371203,73,-10.45,161.92,83.97,54,2.91
Amontada,BR,1583371203,96,-3.36,-39.83,75.34,89,2.73
Mossamedes,AO,1583371203,75,-15.2,12.15,74.44,1,14.79
La Ronge,CA,1583370993,79,55.1,-105.28,26.6,75,3.36
Glinishchevo,RU,1583371203,93,53.3,34.07,39.87,100,11.25
Beyneu,KZ,1583371203,81,45.32,55.2,41.81,7,7.4
Altea,ES,1583371204,51,38.6,-0.05,66.0,92,9.17
Abadan,TM,1583371204,81,38.05,58.21,42.8,75,6.93
Vostok,RU,1583371204,88,46.49,135.88,18.27,100,2.46
Kawalu,ID,1583371204,91,-7.38,108.21,68.85,100,6.33
Flin Flon,CA,1583371204,79,54.77,-101.86,23.0,90,4.7
Batagay,RU,1583371204,82,67.63,134.63,-7.85,96,3.29
Port Townsend,US,1583371205,53,48.12,-122.76,52.0,1,6.93
Avera,US,1583371205,95,33.19,-82.53,57.99,90,4.7
Sosnovo-Ozerskoye,RU,1583371205,95,52.52,111.54,3.42,80,5.37
Polunochnoye,RU,1583371205,83,60.87,60.42,9.16,0,9.1
Zhangzhou,CN,1583371205,71,24.51,117.66,55.4,90,8.95
Sungai Raya,ID,1583371205,95,0.7,108.9,72.88,100,4.54
George Town,MY,1583370956,78,5.41,100.34,82.4,20,3.36
Le Port,RE,1583371205,88,-20.94,55.29,77.0,40,5.82
Xiaoweizhai,CN,1583371206,83,26.19,107.51,43.02,100,2.55
Yibin,CN,1583371085,69,28.77,104.62,53.37,74,2.24
Ericeira,PT,1583371206,93,38.96,-9.42,60.01,75,11.41
Roebourne,AU,1583371206,55,-20.78,117.13,86.88,35,4.97
Sumbe,AO,1583371206,87,-11.21,13.84,74.37,4,0.51
Maxixe,MZ,1583371206,68,-23.86,35.35,75.94,10,14.58
Marabu,MY,1583370926,100,4.41,114.01,75.2,90,3.36
Hong Kong,HK,1583370908,93,22.29,114.16,62.01,40,10.29
Hutchinson,US,1583371207,42,38.06,-97.93,55.0,1,8.05
Bull Savanna,JM,1583371207,91,17.89,-77.59,70.23,9,5.28
Klaksvík,FO,1583371207,74,62.23,-6.59,37.4,33,14.99
Vágur,FO,1583371207,62,61.47,-6.81,43.05,62,22.7
Mareeba,AU,1583371207,70,-17.0,145.43,91.99,90,6.93
Srednekolymsk,RU,1583371207,81,67.45,153.68,0.1,7,5.19
Forsytheganj,BY,1583371207,86,52.63,29.73,45.95,100,10.09
Laguna,US,1583371208,27,38.42,-121.42,79.0,1,1.48
Manadhoo,MV,1583371208,73,5.77,73.38,82.2,38,7.76
Zhezkazgan,KZ,1583371208,57,47.8,67.71,10.71,45,4.92
Kumul,CN,1583371208,48,42.8,93.45,36.46,92,5.82
Tura,IN,1583371097,64,25.52,90.22,65.55,22,2.46
Iqaluit,CA,1583371208,77,63.75,-68.51,3.2,75,9.17
Sīrjān,IR,1583371089,42,29.45,55.68,39.65,0,8.34
Imeni Poliny Osipenko,RU,1583371209,92,52.42,136.49,13.87,93,5.75
Jinchang,CN,1583371209,31,38.5,102.17,30.69,20,8.39
Beringovskiy,RU,1583371209,71,63.05,179.32,8.15,0,1.01
Ashoknagar,IN,1583371209,64,24.57,77.72,61.52,0,3.89
Sabha,LY,1583371209,26,27.04,14.43,59.86,17,10.29
Kamenka,RU,1583371209,96,51.32,42.77,34.0,100,1.99
Andrelândia,BR,1583371209,95,-21.74,-44.31,63.61,6,4.09
Karapyshi,UA,1583371210,71,49.64,30.79,48.79,93,9.93
Neyvo-Shaytanskiy,RU,1583371210,93,57.73,61.25,12.27,26,4.97
Bambanglipuro,ID,1583371210,96,-7.95,110.28,71.4,100,9.53
Lüleburgaz,TR,1583371210,71,41.4,27.36,55.99,75,4.65
Changji,CN,1583371210,92,44.02,87.32,32.0,75,6.71
Guarujá,BR,1583371139,88,-23.99,-46.26,73.99,40,5.82
Noumea,NC,1583371026,58,-22.28,166.46,87.8,75,6.93
Agüimes,ES,1583371210,82,27.91,-15.45,69.01,40,24.16
Sur,OM,1583371211,62,22.57,59.53,68.38,0,18.1
Gien,FR,1583371211,98,47.69,2.63,48.99,100,11.41
Bowen,AU,1583371211,74,-20.02,148.23,91.0,40,1.12
Fakse,DK,1583371211,100,55.25,12.12,39.0,12,6.93
Xichang,CN,1583371211,94,27.9,102.26,33.64,87,2.71
Minatitlán,MX,1583371211,43,17.98,-94.52,87.8,5,11.41
Altoona,US,1583370948,65,40.52,-78.39,46.4,90,10.29
São Filipe,CV,1583371212,63,14.9,-24.5,73.72,0,14.94
Montepulciano,IT,1583371212,93,43.1,11.79,37.99,0,9.17
Lipin Bor,RU,1583371212,93,60.26,37.98,25.23,100,8.52
Ushtobe,KZ,1583371212,72,45.25,77.98,32.32,0,5.03
Tommot,RU,1583371212,94,58.96,126.29,3.56,86,2.71
Pisco,PE,1583371212,78,-13.7,-76.22,75.0,72,20.8
Olafsvik,IS,1583371212,68,64.89,-23.71,29.97,70,11.61
Lensk,RU,1583371213,97,60.73,114.93,2.61,83,4.59
Lavrentiya,RU,1583371213,88,65.58,-171.0,3.36,47,3.47
Griffith,US,1583371213,48,41.53,-87.42,43.0,1,4.7
Lucapa,AO,1583371213,95,-8.42,20.74,65.89,52,1.97
Srīvardhan,IN,1583371213,85,18.03,73.02,67.51,0,6.31
Pudozh,RU,1583371213,89,61.81,36.53,24.08,100,13.0
Calnali,MX,1583371214,76,20.92,-98.58,77.61,22,8.32
Karratha,AU,1583371214,70,-20.74,116.85,86.04,0,8.01
Aylesbury,GB,1583370936,87,51.82,-0.81,43.0,90,5.82
Labytnangi,RU,1583371214,76,66.66,66.42,2.3,49,19.66
Urengoy,RU,1583371214,96,65.97,78.37,2.41,87,6.76
Ankazobe,MG,1583371214,77,-18.32,47.12,62.6,20,6.93
Río Gallegos,AR,1583371214,58,-51.62,-69.22,59.0,62,9.17
Kudahuvadhoo,MV,1583371215,73,2.67,72.89,82.47,66,10.2
Yangi Marg`ilon,UZ,1583371215,75,40.43,71.72,46.4,40,4.7
Comodoro Rivadavia,AR,1583371215,41,-45.87,-67.5,78.8,0,8.05
Tombouctou,ML,1583371215,10,20.0,-3.0,77.36,0,11.74
Port Blair,IN,1583371216,83,11.67,92.75,78.8,20,3.36
Tecpan,GT,1583371216,88,14.76,-90.99,66.2,0,13.87
Dunyapur,PK,1583371216,93,29.8,71.72,59.0,40,6.93
Abū Zabad,SD,1583371216,10,12.35,29.25,72.7,46,11.21
Paka,MY,1583371216,94,4.64,103.44,78.8,40,4.72
Ciudad Bolivar,VE,1583371216,52,8.12,-63.55,84.29,71,16.98
Katsuyama,JP,1583371216,65,36.06,136.5,44.6,75,18.34
Puerto Nariño,CO,1583371216,100,-3.77,-70.38,78.8,40,2.24
Kindersley,CA,1583370944,83,51.47,-109.17,32.0,40,17.22
Sanmenxia,CN,1583371217,43,34.77,111.18,36.27,0,7.43
Osakarovka,KZ,1583371217,79,50.56,72.57,9.25,69,6.8
Sistranda,NO,1583371217,92,63.73,8.83,30.99,75,9.17
Gīdam,IN,1583371217,74,18.98,81.4,66.63,3,0.27
Wagar,SD,1583371217,55,16.15,36.2,69.21,0,8.28
Dogondoutchi,NE,1583371217,9,13.64,4.03,79.57,0,10.27
Teya,RU,1583371218,95,60.38,92.63,22.17,73,9.26
Turaif,SA,1583371218,66,31.67,38.66,50.0,0,13.87
Port Lincoln,AU,1583371218,73,-34.73,135.87,61.25,100,11.41
Pahrump,US,1583371218,14,36.21,-115.98,75.0,1,4.7
Carutapera,BR,1583371218,77,-1.2,-46.02,81.03,98,14.09
Riosucio,CO,1583371218,73,5.42,-75.7,77.0,40,5.82
Grindavik,IS,1583371218,92,63.84,-22.43,28.4,75,12.75
Saint-Augustin,CA,1583371219,95,51.23,-58.65,28.99,100,39.5
Nanortalik,GL,1583371219,58,60.14,-45.24,21.02,0,9.13
Port Hedland,AU,1583371219,66,-20.32,118.57,87.8,0,8.05
Atar,MR,1583371219,8,20.52,-13.05,71.65,0,5.35
Sann,PK,1583371219,82,26.04,68.14,60.8,0,9.95
Kashgar,CN,1583371219,33,39.45,75.98,42.8,75,8.95
Husavik,IS,1583371219,84,66.04,-17.34,6.8,88,8.05
Hambantota,LK,1583371021,100,6.12,81.12,75.2,20,3.36
Zaragoza,ES,1583371004,59,41.66,-0.88,60.8,20,16.11
Gainesville,US,1583371001,73,29.65,-82.32,75.99,1,8.05
Cranbrook,CA,1583371220,34,49.5,-115.77,37.4,40,5.82
Coquimbo,CL,1583371220,87,-29.95,-71.34,60.8,90,6.93
Egvekinot,RU,1583371220,94,66.32,-179.17,-4.58,7,5.03
Aldan,RU,1583371220,89,58.6,125.39,4.3,100,11.03
Philadelphia,US,1583370974,40,39.95,-75.16,55.4,90,5.82
Erzin,TR,1583371221,81,36.96,36.2,57.0,100,4.7
Kosai,JP,1583371221,43,34.71,137.53,50.0,20,19.46
Jaguariaíva,BR,1583371221,96,-24.25,-49.71,58.66,30,2.71
Włodawa,PL,1583371221,100,51.55,23.55,37.4,100,3.36
Kulachi,PK,1583371221,82,31.93,70.46,57.85,4,9.86
Khorramshahr,IR,1583371221,76,30.44,48.17,53.6,0,2.24
Ulcinj,ME,1583371221,93,41.93,19.22,48.2,75,5.82
Gouré,NE,1583371222,7,13.98,10.27,80.01,9,5.99
Singaraja,ID,1583370937,71,-8.11,115.09,83.23,100,6.08
Shahr-e Bābak,IR,1583371222,43,30.12,55.12,39.34,0,8.03
Coxim,BR,1583371222,74,-18.51,-54.76,75.94,9,4.23
Camacha,PT,1583371222,82,33.08,-16.33,62.6,20,6.93
Lewistown,US,1583371222,87,40.6,-77.57,52.0,90,13.87
Rocha,UY,1583371046,94,-34.48,-54.33,62.29,0,6.29
Colares,PT,1583371223,93,38.8,-9.45,60.01,75,11.41
Martos,ES,1583371223,87,37.72,-3.97,57.99,31,0.92
Kalmar,SE,1583371132,88,56.66,16.36,37.99,55,5.82
Bella Vista,US,1583370985,43,36.43,-94.23,53.6,1,8.05
Leningradskiy,RU,1583371223,59,69.38,178.42,4.6,40,1.88
Qinhuangdao,CN,1583371223,28,39.93,119.59,30.04,0,6.8
Lompoc,US,1583371223,72,34.64,-120.46,66.0,20,8.05
Viedma,AR,1583371223,36,-40.81,-63.0,80.33,67,16.87
Lungi,SL,1583371224,86,9.22,-12.68,74.86,0,2.19
Garissa,KE,1583371224,73,-0.45,39.64,80.65,91,15.37
Elbistan,TR,1583371224,69,38.21,37.2,36.16,100,5.5
Agadez,NE,1583371224,9,19.75,10.25,71.15,0,9.28
Hualmay,PE,1583371224,71,-11.1,-77.61,73.99,93,6.51
Boyolangu,ID,1583371224,90,-8.12,111.89,73.9,76,1.9
Sørland,NO,1583371224,70,67.67,12.69,35.92,100,8.32
Yangjiang,CN,1583371224,64,21.85,111.97,66.99,100,7.52
Flagstaff,US,1583371161,23,35.2,-111.65,64.99,1,9.17
North Bend,US,1583371100,76,43.41,-124.22,54.0,1,12.75
Santa Rosa,PH,1583371048,69,14.31,121.11,84.0,20,3.36
Mīrābād,AF,1583371225,51,30.44,61.84,47.3,0,30.8
Madaoua,NE,1583371225,9,14.07,5.96,79.02,0,8.34
Chapais,CA,1583371225,53,49.78,-74.85,21.2,75,10.29
Nago,JP,1583371225,82,26.59,127.98,59.0,90,12.75
Broken Hill,AU,1583371225,93,-31.95,141.43,60.8,90,16.11
Takoradze,GH,1583371049,91,4.88,-1.76,79.34,23,2.13
Hervey Bay,AU,1583371226,65,-25.3,152.85,87.01,90,12.75
Nueva Imperial,CL,1583371104,82,-38.73,-72.95,62.6,62,5.82
Soverato Marina,IT,1583371226,100,38.69,16.55,44.6,40,3.36
Ukiah,US,1583371226,19,39.15,-123.21,78.8,1,5.82
Coahuayana Viejo,MX,1583371226,60,18.73,-103.68,75.2,75,7.85
Gamba,GA,1583371226,90,-2.65,10.0,78.67,100,3.78
Airai,TL,1583371227,80,-8.93,125.41,75.15,87,2.21
Aquin,HT,1583371227,77,18.28,-73.4,76.84,12,6.33
Örnsköldsvik,SE,1583371227,92,63.29,18.72,28.4,90,8.05
Jashpurnagar,IN,1583371227,78,22.9,84.15,59.59,28,1.95
Hailey,US,1583371227,60,43.52,-114.32,39.2,5,9.17
Nyzhnya Duvanka,UA,1583371227,83,49.58,38.17,46.62,86,6.08
Evensk,RU,1583371227,94,61.95,159.23,7.29,100,3.15
Nelson Bay,AU,1583371228,94,-32.72,152.15,73.99,90,9.17
Māngrol,IN,1583371228,71,21.12,70.12,75.7,1,10.36
Rognan,NO,1583371228,63,67.1,15.39,30.99,75,26.4
Townsville,AU,1583371046,70,-19.25,146.8,89.6,40,8.05
Tengzhou,CN,1583371209,20,35.08,117.15,45.0,0,1.01
Telde,ES,1583371228,82,27.99,-15.42,69.01,40,24.16
Jurm,AF,1583371228,94,36.86,70.83,28.02,100,4.14
Koson,UZ,1583371228,93,39.04,65.58,39.2,90,9.17
Bradu,RO,1583371229,94,44.78,24.9,47.34,99,5.5
Honolulu,US,1583371173,54,21.31,-157.86,82.4,75,13.87
Scarborough,GB,1583370940,83,54.28,-0.4,36.0,42,1.12
Linxia Chengguanzhen,CN,1583371229,37,35.6,103.21,30.45,49,7.92
Belyy Yar,RU,1583371229,73,53.6,91.39,26.6,36,11.18
Xunchang,CN,1583371229,66,28.45,104.72,52.66,67,0.85
Cururupu,BR,1583371229,95,-1.83,-44.87,74.37,87,2.26
Mehamn,NO,1583371230,84,71.04,27.85,12.49,61,19.08
Letlhakeng,BW,1583371230,61,-24.09,25.03,63.03,0,4.5
Aksu,CN,1583371230,43,41.12,80.26,39.04,0,2.08
Masalli,KR,1583371230,55,34.8,126.66,39.2,40,13.87
College,US,1583370931,63,64.86,-147.8,-5.8,20,2.51
Iquique,CL,1583371230,64,-20.22,-70.14,71.6,1,12.75
Charagua,BO,1583371230,34,-19.8,-63.22,77.86,0,5.01
Orange Walk District,BZ,1583371230,83,17.83,-88.83,80.6,0,5.82
Manggar,ID,1583371231,90,-2.88,108.27,78.22,100,25.46
Dwārka,IN,1583371231,79,22.24,68.97,74.21,20,13.96
Bonavista,CA,1583371231,100,48.65,-53.11,38.68,100,28.54
Wakkanai,JP,1583371231,92,45.41,141.67,28.4,75,23.04
Dutlwe,BW,1583371231,52,-23.98,23.9,65.23,15,8.16
Zhigansk,RU,1583371231,93,66.77,123.37,2.17,100,15.14
Mujiayingzi,CN,1583371231,36,42.12,118.78,19.96,0,4.59
Aberdeen,GB,1583371043,86,57.14,-2.1,37.0,33,2.24
Tarata,BO,1583371232,52,-17.62,-66.02,64.4,20,6.93
Naze,JP,1583371232,71,28.37,129.48,57.2,90,12.75
Botro,CI,1583371232,69,7.85,-5.31,80.6,64,9.17
Isla Mujeres,MX,1583371232,78,21.23,-86.73,80.6,40,13.87
Raseiniai,LT,1583371232,93,55.37,23.12,37.4,90,6.93
Santa Cruz de la Sierra,BO,1583371038,69,-17.8,-63.17,80.6,8,4.7
Denpasar,ID,1583371020,86,-8.65,115.22,78.96,100,4.92
Vieques,PR,1583371233,69,18.43,-65.83,78.8,20,6.93
Bazarnye Mataki,RU,1583371233,96,54.88,49.93,30.06,100,9.62
Neuquén,AR,1583371233,26,-38.95,-68.06,91.4,20,5.82
Buraidah,SA,1583371233,53,26.33,43.98,51.8,0,2.24
Jenison,US,1583370943,80,42.91,-85.79,33.01,1,6.64
Anstruther,GB,1583371233,86,56.22,-2.7,34.0,26,4.7
Lidköping,SE,1583371233,89,58.51,13.16,33.8,94,8.05
Shuiji,CN,1583371233,93,27.42,118.34,44.02,100,3.15
Najrān,SA,1583371234,51,17.49,44.13,59.0,46,3.09
Tazmalt,DZ,1583371234,87,36.39,4.4,53.6,41,5.82
Fairbanks,US,1583371000,63,64.84,-147.72,-8.0,20,3.0
Terrace,CA,1583371099,86,54.52,-128.6,33.8,90,5.82
Puerto Carreño,CO,1583371234,43,6.19,-67.49,89.6,0,8.05
Imbituba,BR,1583371234,100,-28.24,-48.67,71.6,40,5.82
Safford,US,1583371072,20,32.83,-109.71,68.0,1,4.7
Mabaruma,GY,1583371234,88,8.2,-59.78,72.5,29,3.51
Canutama,BR,1583371234,96,-6.53,-64.38,75.87,91,3.58
Mitú,CO,1583371235,87,1.2,-70.17,75.49,18,1.95
Kiruna,SE,1583371235,92,67.86,20.23,6.8,100,1.41
Anadyr,RU,1583371083,71,64.75,177.48,5.0,0,6.71
Shitanjing,CN,1583371235,47,39.23,106.34,32.27,19,0.96
Spinea,IT,1583371235,86,45.49,12.16,43.0,0,5.82
Catherinas Lust,GY,1583371085,79,6.4,-57.6,79.45,0,20.42
Nurota,UZ,1583371236,75,40.56,65.69,42.8,100,13.87
Valença,BR,1583371236,88,-13.37,-39.07,76.1,0,1.36
Ransang,PH,1583371236,79,8.96,117.58,79.57,44,17.81
Vila Franca do Campo,PT,1583371236,67,37.72,-25.43,57.2,20,6.93
Apatzingán,MX,1583371236,38,19.08,-102.35,73.4,75,3.22
Atkinson,US,1583371236,39,42.84,-71.15,45.0,20,17.22
Daru,PG,1583371236,86,-9.08,143.21,82.31,100,5.5
Saskylakh,RU,1583371236,100,71.92,114.08,-8.64,66,2.59
China,MX,1583371224,15,25.7,-99.23,81.1,100,18.75
Belen,TR,1583371237,81,36.49,36.22,57.0,100,4.7
Tazovsky,RU,1583371237,93,67.47,78.7,15.31,97,17.74
Thetford Mines,CA,1583371237,87,46.09,-71.3,30.0,100,10.0
Qui Nhon,VN,1583371237,90,13.77,109.23,72.5,98,1.45
Bulungu,CD,1583371237,68,-4.55,18.6,74.68,0,1.79
Itapeva,BR,1583371238,93,-23.98,-48.88,61.95,0,6.71
Moerai,PF,1583371238,87,-22.43,-151.33,75.72,100,2.73
Bozhou,CN,1583371238,65,33.88,115.77,38.52,0,12.5
San Patricio,MX,1583371238,74,19.22,-104.7,80.6,40,11.41
Senador José Porfírio,BR,1583371238,96,-2.59,-51.95,75.42,100,4.36
Auki,SB,1583371238,73,-8.77,160.7,84.83,100,3.96
Xinyu,CN,1583371238,86,27.8,114.93,49.15,86,7.25
Margate,GB,1583371238,100,51.38,1.39,45.0,99,6.93
Umm Kaddadah,SD,1583371239,9,13.6,26.69,72.59,0,9.73
Khovd,MN,1583371239,86,48.01,91.64,15.89,82,4.18
Cockburn Town,TC,1583371239,81,21.46,-71.14,78.28,0,18.75
Brewster,US,1583371239,52,41.4,-73.62,50.0,90,10.29
Betanzos,ES,1583371239,93,43.28,-8.21,59.0,75,9.17
Levice,SK,1583371240,92,48.22,18.61,37.99,0,1.12
Harjavalta,FI,1583371240,93,61.32,22.13,35.6,90,9.17
Pabellón de Arteaga,MX,1583371240,22,22.15,-102.25,69.8,90,13.87
Voronezh,RU,1583370946,100,51.67,39.17,37.4,90,11.18
Kingaroy,AU,1583371240,61,-26.53,151.83,78.8,40,9.17
Moranbah,AU,1583371240,68,-22.0,148.05,82.99,97,5.64
Tual,ID,1583371240,76,-5.67,132.75,83.68,100,13.11
Warrington,GB,1583371109,100,53.39,-2.58,39.2,40,5.82
Caniço,PT,1583371241,72,32.63,-16.85,62.6,20,2.24
San Matías,BO,1583371241,53,-16.37,-58.4,80.46,38,2.75
Polovinnoye,RU,1583371241,96,54.79,65.99,28.62,100,10.31
Adrar,MR,1583371241,7,20.5,-10.07,73.44,0,6.53
Marsá Maţrūḩ,EG,1583371241,87,31.35,27.25,59.0,99,11.41
Paita,PE,1583371241,71,-5.09,-81.11,79.02,9,12.41
Kiryat Gat,IL,1583371241,93,31.61,34.76,61.0,0,3.36
Stepnyak,KZ,1583371242,76,52.83,70.78,19.51,100,12.12
Laas,IT,1583371242,73,46.62,10.7,30.99,76,3.29
Tilichiki,RU,1583371242,87,60.47,166.1,3.0,5,4.7
Yelizovo,RU,1583371242,62,53.19,158.38,21.2,100,4.47
Eyl,SO,1583371242,63,7.98,49.82,77.76,13,9.01
Palmer,US,1583371166,41,42.16,-72.33,46.4,20,10.29
Murupara,NZ,1583371242,52,-38.47,176.7,73.0,45,8.99
Ballitoville,ZA,1583371243,88,-29.54,31.21,72.0,0,4.7
Kuji,JP,1583371243,93,40.19,141.77,41.0,75,10.29
George,ZA,1583371243,77,-33.96,22.46,66.2,58,4.7
Amapá,BR,1583371243,96,1.0,-52.0,73.02,4,3.69
Nador,MA,1583371121,63,35.17,-2.93,64.4,0,13.87
Manokwari,ID,1583370988,76,-0.87,134.08,78.35,89,4.9
Vao,NC,1583371243,78,-22.67,167.48,79.12,3,3.49
Janów Lubelski,PL,1583371243,100,50.71,22.41,37.4,100,3.36
Nísia Floresta,BR,1583371243,78,-6.09,-35.21,82.4,20,4.7
Seoul,KR,1583371103,47,37.57,126.98,33.8,1,3.36
Turan,VN,1583371244,94,16.07,108.22,75.2,75,1.12
Alençon,FR,1583371244,100,48.43,0.08,50.0,100,3.36
Karligan,PH,1583371244,81,14.97,122.05,77.56,38,10.49
Ketchikan,US,1583371244,86,55.34,-131.65,37.4,90,14.99
Shenjiamen,CN,1583371244,64,29.96,122.3,45.91,67,16.2
Constitución,CL,1583371244,80,-35.33,-72.42,57.47,5,7.25
Belém de São Francisco,BR,1583371245,95,-8.75,-38.97,72.61,100,10.2
Vaitape,PF,1583371245,73,-16.52,-151.75,82.47,86,5.95
Kyra,RU,1583371245,87,49.58,111.98,4.87,95,1.28
Coracora,PE,1583371068,84,-15.03,-73.78,53.87,82,3.87
Bud,US,1583371245,56,39.45,-86.18,46.99,40,6.93
Valdivia,CL,1583371245,82,-39.81,-73.25,57.2,10,2.24
Inhambane,MZ,1583371246,68,-23.86,35.38,75.94,10,14.58
